{"schemas":[{"@context":"https://schema.org","@graph":[{"@type":"CollectionPage","name":"Virtual Auditor Chennai — All Services by Neighborhood","description":"Complete directory of Virtual Auditor services across 10 neighborhoods in Chennai — company registration, GST, valuations, FEMA, company secretary, transfer pricing, forensic accounting, startup due diligence, income tax, and audit services.","url":"https://virtualauditor.in/services-all-chennai/","isPartOf":{"@type":"WebSite","name":"Virtual Auditor","url":"https://virtualauditor.in"},"about":[{"@type":"Organization","name":"Virtual Auditor"},{"@type":"City","name":"Chennai"}]},{"@type":"BreadcrumbList","itemListElement":[{"@type":"ListItem","position":1,"name":"Home","item":"https://virtualauditor.in/"},{"@type":"ListItem","position":2,"name":"All Locations","item":"https://virtualauditor.in/services-locations-india/"},{"@type":"ListItem","position":3,"name":"Chennai","item":"https://virtualauditor.in/services-all-chennai/"}]},{"@type":"ProfessionalService","name":"Virtual Auditor — Chennai","url":"https://virtualauditor.in","telephone":"+91-9962260333","hasMap":"https://maps.app.goo.gl/FkJm6wPv9VWJ2xVy8","areaServed":[{"@type":"Place","name":"Anna Salai (Mount Road)","geo":{"@type":"GeoCoordinates","latitude":"13.0604","longitude":"80.2633"}},{"@type":"Place","name":"T Nagar (Thyagaraya Nagar)","geo":{"@type":"GeoCoordinates","latitude":"13.0418","longitude":"80.2341"}},{"@type":"Place","name":"OMR (Old Mahabalipuram Road)","geo":{"@type":"GeoCoordinates","latitude":"12.9165","longitude":"80.2274"}},{"@type":"Place","name":"Nungambakkam","geo":{"@type":"GeoCoordinates","latitude":"13.0569","longitude":"80.2425"}},{"@type":"Place","name":"Guindy","geo":{"@type":"GeoCoordinates","latitude":"13.0067","longitude":"80.2206"}},{"@type":"Place","name":"Adyar","geo":{"@type":"GeoCoordinates","latitude":"13.0012","longitude":"80.2565"}},{"@type":"Place","name":"Velachery","geo":{"@type":"GeoCoordinates","latitude":"12.9815","longitude":"80.2180"}},{"@type":"Place","name":"Porur","geo":{"@type":"GeoCoordinates","latitude":"13.0382","longitude":"80.1564"}},{"@type":"Place","name":"Ambattur","geo":{"@type":"GeoCoordinates","latitude":"13.1143","longitude":"80.1548"}},{"@type":"Place","name":"Mylapore","geo":{"@type":"GeoCoordinates","latitude":"13.0339","longitude":"80.2676"}}]}]},{"@context":"https://schema.org","@type":"WebPage","name":"Virtual Auditor Chennai — All Services by Neighborhood | Virtual Auditor","description":"Virtual Auditor provides 10 professional services across 10 neighborhoods in Chennai. ROC: Shastri Bhawan, 4th Floor, 26 Haddows Road, Nungambakkam, Chennai 600","url":"https://virtualauditor.in/services-all-chennai/","isPartOf":{"@type":"WebSite","@id":"https://virtualauditor.in/#website","name":"Virtual Auditor"},"speakable":{"@type":"SpeakableSpecification","cssSelector":["h1",".prose h2",".prose p:first-of-type"]},"reviewedBy":{"@type":"Person","name":"CA V. Viswanathan","jobTitle":"Fellow Chartered Accountant","hasCredential":"FCA, ACS, CFE, IBBI RV"}},{"@context":"https://schema.org","@type":"BreadcrumbList","itemListElement":[{"@type":"ListItem","position":1,"name":"Home","item":"https://virtualauditor.in/"},{"@type":"ListItem","position":2,"name":"Virtual Auditor Chennai"}]},{"@context":"https://schema.org","@type":"Service","name":"Virtual Auditor Chennai","description":"Virtual Auditor provides 10 professional services across 10 neighborhoods in Chennai. ROC: Shastri Bhawan, 4th Floor, 26 Haddows Road, Nungambakkam, Chennai 600","url":"https://virtualauditor.in/services-all-chennai/","provider":{"@type":"ProfessionalService","name":"Virtual Auditor","@id":"https://virtualauditor.in/#organization"},"areaServed":{"@type":"Country","name":"India"},"serviceType":"Professional Accounting & Valuation Services"},{"@context":"https://schema.org","@type":"ProfessionalService","@id":"https://virtualauditor.in/services-all-chennai/#business","name":"Virtual Auditor — Chennai","description":"Virtual Auditor provides 10 professional services across 10 neighborhoods in Chennai. ROC: Shastri Bhawan, 4th Floor, 26 Haddows Road, Nungambakkam, Chennai 600","url":"https://virtualauditor.in/services-all-chennai/","telephone":"+91-9962260333","email":"support@virtualauditor.in","address":{"@type":"PostalAddress","streetAddress":"G-131, Ground Floor, Phase 3, Spencer Plaza Mall, Anna Salai","addressLocality":"Chennai","addressRegion":"Tamil Nadu","postalCode":"600002","addressCountry":"IN"},"geo":{"@type":"GeoCoordinates","latitude":13.0627,"longitude":80.2707},"priceRange":"₹₹","openingHours":"Mo-Sa 09:30-18:30","aggregateRating":{"@type":"AggregateRating","ratingValue":"4.8","reviewCount":"320","bestRating":"5"},"hasCredential":[{"@type":"EducationalOccupationalCredential","credentialCategory":"FCA","name":"Fellow Chartered Accountant"},{"@type":"EducationalOccupationalCredential","credentialCategory":"IBBI RV","name":"IBBI Registered Valuer IBBI/RV/03/2019/12333"}]}],"faqs":[],"howToSteps":[],"howToName":null,"howToDescription":null}