{"schemas":[{"@context":"https://schema.org","@graph":[{"@type":"CollectionPage","name":"Virtual Auditor Bangalore — All Services by Neighborhood","description":"Complete directory of Virtual Auditor services across 10 neighborhoods in Bangalore — company registration, GST, valuations, FEMA, company secretary, transfer pricing, forensic accounting, startup due diligence, income tax, and audit services.","url":"https://virtualauditor.in/services-all-bangalore/","isPartOf":{"@type":"WebSite","name":"Virtual Auditor","url":"https://virtualauditor.in"},"about":[{"@type":"Organization","name":"Virtual Auditor"},{"@type":"City","name":"Bangalore"}]},{"@type":"BreadcrumbList","itemListElement":[{"@type":"ListItem","position":1,"name":"Home","item":"https://virtualauditor.in/"},{"@type":"ListItem","position":2,"name":"All Locations","item":"https://virtualauditor.in/services-locations-india/"},{"@type":"ListItem","position":3,"name":"Bangalore","item":"https://virtualauditor.in/services-all-bangalore/"}]},{"@type":"ProfessionalService","name":"Virtual Auditor — Bangalore","url":"https://virtualauditor.in","telephone":"+91-9962260333","hasMap":"https://maps.app.goo.gl/TYTqfyFFtb8tBWz76","areaServed":[{"@type":"Place","name":"Koramangala","geo":{"@type":"GeoCoordinates","latitude":"12.9352","longitude":"77.6245"}},{"@type":"Place","name":"HSR Layout","geo":{"@type":"GeoCoordinates","latitude":"12.9116","longitude":"77.6389"}},{"@type":"Place","name":"Indiranagar","geo":{"@type":"GeoCoordinates","latitude":"12.9784","longitude":"77.6408"}},{"@type":"Place","name":"Whitefield","geo":{"@type":"GeoCoordinates","latitude":"12.9698","longitude":"77.7500"}},{"@type":"Place","name":"Electronic City","geo":{"@type":"GeoCoordinates","latitude":"12.8399","longitude":"77.6770"}},{"@type":"Place","name":"MG Road","geo":{"@type":"GeoCoordinates","latitude":"12.9757","longitude":"77.6065"}},{"@type":"Place","name":"Jayanagar","geo":{"@type":"GeoCoordinates","latitude":"12.9300","longitude":"77.5838"}},{"@type":"Place","name":"Marathahalli","geo":{"@type":"GeoCoordinates","latitude":"12.9591","longitude":"77.7009"}},{"@type":"Place","name":"Bannerghatta Road","geo":{"@type":"GeoCoordinates","latitude":"12.8906","longitude":"77.5970"}},{"@type":"Place","name":"Hebbal","geo":{"@type":"GeoCoordinates","latitude":"13.0358","longitude":"77.5970"}}]}]},{"@context":"https://schema.org","@type":"WebPage","name":"Virtual Auditor Bangalore — All Services by Neighborhood | Virtual Auditor","description":"Virtual Auditor provides 10 professional services across 10 neighborhoods in Bangalore. ROC: Kendriya Sadan, 4th Floor, Koramangala, Bangalore 560034. Stamp dut","url":"https://virtualauditor.in/services-all-bangalore/","isPartOf":{"@type":"WebSite","@id":"https://virtualauditor.in/#website","name":"Virtual Auditor"},"speakable":{"@type":"SpeakableSpecification","cssSelector":["h1",".prose h2",".prose p:first-of-type"]},"reviewedBy":{"@type":"Person","name":"CA V. Viswanathan","jobTitle":"Fellow Chartered Accountant","hasCredential":"FCA, ACS, CFE, IBBI RV"}},{"@context":"https://schema.org","@type":"BreadcrumbList","itemListElement":[{"@type":"ListItem","position":1,"name":"Home","item":"https://virtualauditor.in/"},{"@type":"ListItem","position":2,"name":"Virtual Auditor Bangalore"}]},{"@context":"https://schema.org","@type":"Service","name":"Virtual Auditor Bangalore","description":"Virtual Auditor provides 10 professional services across 10 neighborhoods in Bangalore. ROC: Kendriya Sadan, 4th Floor, Koramangala, Bangalore 560034. Stamp dut","url":"https://virtualauditor.in/services-all-bangalore/","provider":{"@type":"ProfessionalService","name":"Virtual Auditor","@id":"https://virtualauditor.in/#organization"},"areaServed":{"@type":"Country","name":"India"},"serviceType":"Professional Accounting & Valuation Services"},{"@context":"https://schema.org","@type":"ProfessionalService","@id":"https://virtualauditor.in/services-all-bangalore/#business","name":"Virtual Auditor — Chennai","description":"Virtual Auditor provides 10 professional services across 10 neighborhoods in Bangalore. ROC: Kendriya Sadan, 4th Floor, Koramangala, Bangalore 560034. Stamp dut","url":"https://virtualauditor.in/services-all-bangalore/","telephone":"+91-9962260333","email":"support@virtualauditor.in","address":{"@type":"PostalAddress","streetAddress":"G-131, Ground Floor, Phase 3, Spencer Plaza Mall, Anna Salai","addressLocality":"Chennai","addressRegion":"Tamil Nadu","postalCode":"600002","addressCountry":"IN"},"geo":{"@type":"GeoCoordinates","latitude":13.0627,"longitude":80.2707},"priceRange":"₹₹","openingHours":"Mo-Sa 09:30-18:30","aggregateRating":{"@type":"AggregateRating","ratingValue":"4.8","reviewCount":"320","bestRating":"5"},"hasCredential":[{"@type":"EducationalOccupationalCredential","credentialCategory":"FCA","name":"Fellow Chartered Accountant"},{"@type":"EducationalOccupationalCredential","credentialCategory":"IBBI RV","name":"IBBI Registered Valuer IBBI/RV/03/2019/12333"}]}],"faqs":[],"howToSteps":[],"howToName":null,"howToDescription":null}